[
  {
    "displayName": "East US",
    "geographyGroup": "US",
    "latitude": "37.3719",
    "longitude": "-79.8164",
    "name": "eastus"
  },
  {
    "displayName": "West US 2",
    "geographyGroup": "US",
    "latitude": "47.233",
    "longitude": "-119.852",
    "name": "westus2"
  },
  {
    "displayName": "Australia East",
    "geographyGroup": "Asia Pacific",
    "latitude": "-33.86",
    "longitude": "151.2094",
    "name": "australiaeast"
  },
  {
    "displayName": "Southeast Asia",
    "geographyGroup": "Asia Pacific",
    "latitude": "1.283",
    "longitude": "103.833",
    "name": "southeastasia"
  },
  {
    "displayName": "North Europe",
    "geographyGroup": "Europe",
    "latitude": "53.3478",
    "longitude": "-6.2597",
    "name": "northeurope"
  },
  {
    "displayName": "Sweden Central",
    "geographyGroup": "Europe",
    "latitude": "60.67488",
    "longitude": "17.14127",
    "name": "swedencentral"
  },
  {
    "displayName": "West Europe",
    "geographyGroup": "Europe",
    "latitude": "52.3667",
    "longitude": "4.9",
    "name": "westeurope"
  },
  {
    "displayName": "UK South",
    "geographyGroup": "UK",
    "latitude": "50.941",
    "longitude": "-0.799",
    "name": "uksouth"
  },
  {
    "displayName": "Central US",
    "geographyGroup": "US",
    "latitude": "41.5908",
    "longitude": "-93.6208",
    "name": "centralus"
  },
  {
    "displayName": "South Africa North",
    "geographyGroup": "Africa",
    "latitude": "-25.73134",
    "longitude": "28.21837",
    "name": "southafricanorth"
  },
  {
    "displayName": "Central India",
    "geographyGroup": "Asia Pacific",
    "latitude": "18.5822",
    "longitude": "73.9197",
    "name": "centralindia"
  },
  {
    "displayName": "East Asia",
    "geographyGroup": "Asia Pacific",
    "latitude": "22.267",
    "longitude": "114.188",
    "name": "eastasia"
  },
  {
    "displayName": "Indonesia Central",
    "geographyGroup": "Asia Pacific",
    "latitude": "-6.2",
    "longitude": "106.816666",
    "name": "indonesiacentral"
  },
  {
    "displayName": "Japan East",
    "geographyGroup": "Asia Pacific",
    "latitude": "35.68",
    "longitude": "139.77",
    "name": "japaneast"
  },
  {
    "displayName": "Japan West",
    "geographyGroup": "Asia Pacific",
    "latitude": "34.6939",
    "longitude": "135.5022",
    "name": "japanwest"
  },
  {
    "displayName": "Korea Central",
    "geographyGroup": "Asia Pacific",
    "latitude": "37.5665",
    "longitude": "126.978",
    "name": "koreacentral"
  },
  {
    "displayName": "Malaysia West",
    "geographyGroup": "Asia Pacific",
    "latitude": "3.140853",
    "longitude": "101.693207",
    "name": "malaysiawest"
  },
  {
    "displayName": "New Zealand North",
    "geographyGroup": "Asia Pacific",
    "latitude": "-36.84853",
    "longitude": "174.76349",
    "name": "newzealandnorth"
  },
  {
    "displayName": "Canada Central",
    "geographyGroup": "Canada",
    "latitude": "43.653",
    "longitude": "-79.383",
    "name": "canadacentral"
  },
  {
    "displayName": "Austria East",
    "geographyGroup": "Europe",
    "latitude": "48.2092056",
    "longitude": "16.3727779",
    "name": "austriaeast"
  },
  {
    "displayName": "Belgium Central",
    "geographyGroup": "Europe",
    "latitude": "50.84553528",
    "longitude": "4.355707169",
    "name": "belgiumcentral"
  },
  {
    "displayName": "Denmark East",
    "geographyGroup": "Europe",
    "latitude": "55.67594",
    "longitude": "12.56553",
    "name": "denmarkeast"
  },
  {
    "displayName": "France Central",
    "geographyGroup": "Europe",
    "latitude": "46.3772",
    "longitude": "2.373",
    "name": "francecentral"
  },
  {
    "displayName": "Germany West Central",
    "geographyGroup": "Europe",
    "latitude": "50.110924",
    "longitude": "8.682127",
    "name": "germanywestcentral"
  },
  {
    "displayName": "Italy North",
    "geographyGroup": "Europe",
    "latitude": "45.46888",
    "longitude": "9.18109",
    "name": "italynorth"
  },
  {
    "displayName": "Norway East",
    "geographyGroup": "Europe",
    "latitude": "59.913868",
    "longitude": "10.752245",
    "name": "norwayeast"
  },
  {
    "displayName": "Poland Central",
    "geographyGroup": "Europe",
    "latitude": "52.23334",
    "longitude": "21.01666",
    "name": "polandcentral"
  },
  {
    "displayName": "Spain Central",
    "geographyGroup": "Europe",
    "latitude": "40.4259",
    "longitude": "3.4209",
    "name": "spaincentral"
  },
  {
    "displayName": "Switzerland North",
    "geographyGroup": "Europe",
    "latitude": "47.451542",
    "longitude": "8.564572",
    "name": "switzerlandnorth"
  },
  {
    "displayName": "Mexico Central",
    "geographyGroup": "Mexico",
    "latitude": "20.588818",
    "longitude": "-100.389888",
    "name": "mexicocentral"
  },
  {
    "displayName": "UAE North",
    "geographyGroup": "Middle East",
    "latitude": "25.266666",
    "longitude": "55.316666",
    "name": "uaenorth"
  },
  {
    "displayName": "Brazil South",
    "geographyGroup": "South America",
    "latitude": "-23.55",
    "longitude": "-46.633",
    "name": "brazilsouth"
  },
  {
    "displayName": "Chile Central",
    "geographyGroup": "South America",
    "latitude": "-33.447487",
    "longitude": "-70.673676",
    "name": "chilecentral"
  },
  {
    "displayName": "East US 2 EUAP",
    "geographyGroup": "US",
    "latitude": "36.6681",
    "longitude": "-78.3889",
    "name": "eastus2euap"
  },
  {
    "displayName": "Israel Central",
    "geographyGroup": "Middle East",
    "latitude": "31.2655698",
    "longitude": "33.4506633",
    "name": "israelcentral"
  },
  {
    "displayName": "Qatar Central",
    "geographyGroup": "Middle East",
    "latitude": "25.551462",
    "longitude": "51.439327",
    "name": "qatarcentral"
  },
  {
    "displayName": "East US 2",
    "geographyGroup": "US",
    "latitude": "36.6681",
    "longitude": "-78.3889",
    "name": "eastus2"
  },
  {
    "displayName": "East US STG",
    "geographyGroup": "US",
    "latitude": "37.3719",
    "longitude": "-79.8164",
    "name": "eastusstg"
  },
  {
    "displayName": "South Central US",
    "geographyGroup": "US",
    "latitude": "29.4167",
    "longitude": "-98.5",
    "name": "southcentralus"
  },
  {
    "displayName": "West US 3",
    "geographyGroup": "US",
    "latitude": "33.448376",
    "longitude": "-112.074036",
    "name": "westus3"
  },
  {
    "displayName": "North Central US",
    "geographyGroup": "US",
    "latitude": "41.8819",
    "longitude": "-87.6278",
    "name": "northcentralus"
  },
  {
    "displayName": "West US",
    "geographyGroup": "US",
    "latitude": "37.783",
    "longitude": "-122.417",
    "name": "westus"
  },
  {
    "displayName": "Jio India West",
    "geographyGroup": "Asia Pacific",
    "latitude": "22.470701",
    "longitude": "70.05773",
    "name": "jioindiawest"
  },
  {
    "displayName": "Central US EUAP",
    "geographyGroup": "US",
    "latitude": "41.5908",
    "longitude": "-93.6208",
    "name": "centraluseuap"
  },
  {
    "displayName": "South Central US STG",
    "geographyGroup": "US",
    "latitude": "29.4167",
    "longitude": "-98.5",
    "name": "southcentralusstg"
  },
  {
    "displayName": "West Central US",
    "geographyGroup": "US",
    "latitude": "40.89",
    "longitude": "-110.234",
    "name": "westcentralus"
  },
  {
    "displayName": "South Africa West",
    "geographyGroup": "Africa",
    "latitude": "-34.075691",
    "longitude": "18.843266",
    "name": "southafricawest"
  },
  {
    "displayName": "Australia Central",
    "geographyGroup": "Asia Pacific",
    "latitude": "-35.3075",
    "longitude": "149.1244",
    "name": "australiacentral"
  },
  {
    "displayName": "Australia Central 2",
    "geographyGroup": "Asia Pacific",
    "latitude": "-35.3075",
    "longitude": "149.1244",
    "name": "australiacentral2"
  },
  {
    "displayName": "Australia Southeast",
    "geographyGroup": "Asia Pacific",
    "latitude": "-37.8136",
    "longitude": "144.9631",
    "name": "australiasoutheast"
  },
  {
    "displayName": "Jio India Central",
    "geographyGroup": "Asia Pacific",
    "latitude": "21.146633",
    "longitude": "79.08886",
    "name": "jioindiacentral"
  },
  {
    "displayName": "Korea South",
    "geographyGroup": "Asia Pacific",
    "latitude": "35.1796",
    "longitude": "129.0756",
    "name": "koreasouth"
  },
  {
    "displayName": "South India",
    "geographyGroup": "Asia Pacific",
    "latitude": "12.9822",
    "longitude": "80.1636",
    "name": "southindia"
  },
  {
    "displayName": "West India",
    "geographyGroup": "Asia Pacific",
    "latitude": "19.088",
    "longitude": "72.868",
    "name": "westindia"
  },
  {
    "displayName": "Canada East",
    "geographyGroup": "Canada",
    "latitude": "46.817",
    "longitude": "-71.217",
    "name": "canadaeast"
  },
  {
    "displayName": "France South",
    "geographyGroup": "Europe",
    "latitude": "43.8345",
    "longitude": "2.1972",
    "name": "francesouth"
  },
  {
    "displayName": "Germany North",
    "geographyGroup": "Europe",
    "latitude": "53.073635",
    "longitude": "8.806422",
    "name": "germanynorth"
  },
  {
    "displayName": "Norway West",
    "geographyGroup": "Europe",
    "latitude": "58.969975",
    "longitude": "5.733107",
    "name": "norwaywest"
  },
  {
    "displayName": "Switzerland West",
    "geographyGroup": "Europe",
    "latitude": "46.204391",
    "longitude": "6.143158",
    "name": "switzerlandwest"
  },
  {
    "displayName": "UAE Central",
    "geographyGroup": "Middle East",
    "latitude": "24.466667",
    "longitude": "54.366669",
    "name": "uaecentral"
  },
  {
    "displayName": "Brazil Southeast",
    "geographyGroup": "South America",
    "latitude": "-22.90278",
    "longitude": "-43.2075",
    "name": "brazilsoutheast"
  },
  {
    "displayName": "UK West",
    "geographyGroup": "UK",
    "latitude": "53.427",
    "longitude": "-3.084",
    "name": "ukwest"
  }
]
